name,lat,lng,priority,type
"Dubai",25.258172,55.304717,3,2
"Sharjah",25.35731,55.403304,4,2
"Yerevan",40.1811111,44.5136111,3,2
"Cordoba",-31.413496,-64.181052,3,2
"La Plata",-34.921454,-57.954533,3,2
"Mar Del Plata",-38.002278,-57.557539,3,2
"Mendoza",-32.890845,-68.827171,3,2
"Rosario",-32.946818,-60.639317,3,2
"Salta",-24.785896,-65.411664,3,2
"Tucuman",-26.824144,-65.2226,3,2
"Adelaide",-34.928661,138.598633,3,2
"Brisbane",-27.47101,153.024292,3,2
"Gold Coast",-28.00029,153.430878,3,2
"Perth",-31.95224,115.861397,3,2
"Khulna",22.8,89.55,3,2
"Rajshahi",24.3666667,88.6,3,2
"Cotonou",6.35,2.4333333,3,2
"Cochabamba",-17.3833333,-66.15,3,2
"Belem",-1.45,-48.483333,1,2
"Campinas",-22.9,-47.083333,3,2
"Campo Grande",-20.45,-54.616667,3,2
"Contagem",-19.916667,-44.1,3,2
"Cuiaba",-15.583333,-56.083333,3,2
"Curitiba",-25.416667,-49.25,3,2
"Duque De Caxias",-22.790321,-43.325009,3,2
"Goiania",-16.666667,-49.266667,3,2
"Guarulhos",-23.45068,-46.526175,3,2
"Jaboatao",-8.116667,-35.016667,2,2
"Joao Pessoa",-7.116667,-34.866667,3,2
"Maceio",-9.666667,-35.716667,2,2
"Manaus",-3.113333,-60.025278,3,2
"Natal",-5.783333,-35.216667,1,2
"Nova Iguacu",-22.759188,-43.431887,3,2
"Osasco",-23.566667,-46.783333,3,2
"Porto Alegre",-30.033333,-51.2,3,2
"Recife",-8.05,-34.9,7,2
"Ribeirao Preto",-21.166667,-47.8,3,2
"Santo Andre",-23.666667,-46.516667,3,2
"Sao Bernardo Do Campo",-23.7,-46.55,3,2
"Sao Goncalo",-22.800278,-43.025556,3,2
"Sao Jose Dos Campos",-23.183333,-45.883333,3,2
"Sao Luis",-2.516667,-44.266667,3,2
"Sorocaba",-23.483333,-47.45,3,2
"Teresina",-5.083333,-42.816667,2,2
"Uberlandia",-18.916667,-48.3,3,2
"Calgary",51.083333,-114.083333,3,2
"Edmonton",53.55,-113.5,3,2
"Hamilton",43.25,-79.833333,3,2
"Ottawa",45.416667,-75.7,3,2
"Quebec",46.8,-71.25,3,2
"Vancouver",49.25,-123.133333,3,2
"Winnipeg",49.883333,-97.166667,3,2
"Kisangani",.516667,25.2,2,2
"Lubumbashi",-11.666667,27.466667,3,2
"Mbuji-mayi",-6.15,23.6,2,2
"Bouake",7.693846,-5.030307,3,2
"Douala",4.0502778,9.7,3,2
"Yaounde",3.8666667,11.5166667,3,2
"Anshan",41.123611,122.99,5,2
"Anyang",36.099444,114.328889,3,2
"Baoding",38.851111,115.490278,3,2
"Bengbu",32.940833,117.360833,3,2
"Benxi",41.288611,123.765,3,2
"Cangzhou",38.316667,116.866667,3,2
"Changde",29.046378,111.678304,3,2
"Changzhou",31.783333,119.966667,3,2
"Dandong",40.129167,124.394722,3,2
"Datong",40.093611,113.291389,3,2
"Foshan",23.026771,113.131483,3,2
"Fushun",41.7,123.883333,3,2
"Fuxin",42.015556,121.658889,3,2
"Fuzhou",26.061389,119.306111,3,2
"Guilin",25.281944,110.286389,3,2
"Guiyang",26.583333,106.716667,3,2
"Haikou",20.045833,110.341667,3,2
"Handan",36.566667,114.533333,3,2
"Hangzhou",30.29365,120.161419,3,2
"Hefei",31.863889,117.280833,3,2
"Hegang",47.4,130.366667,3,2
"Hengyang",26.888056,112.615,3,2
"Hohhot",40.810556,111.652222,3,2
"Huaibei",33.974444,116.791667,3,2
"Huainan",32.626389,116.996944,3,2
"Huaiyin",33.588611,119.019167,3,2
"Jiamusi",46.833333,130.35,3,2
"Jiangmen",22.583333,113.083333,3,2
"Jiaozuo",35.239722,113.233056,3,2
"Jilin",43.850833,126.560278,3,2
"Jinzhou",41.107778,121.141667,3,2
"Kaifeng",34.744167,114.418611,3,2
"Kunming",25.038889,102.718333,3,2
"Langfang",39.509722,116.694722,3,2
"Lanzhou",36.056389,103.792222,3,2
"Liaoyang",41.226111,123.056111,3,2
"Liuzhou",24.312582,109.389157,3,2
"Luancheng",37.879167,114.651667,3,2
"Luoyang",34.683611,112.453611,3,2
"Maanshan",31.695678,118.498248,3,2
"Mudanjiang",44.583333,129.6,3,2
"Nanchang",28.55,115.933333,3,2
"Nanning",22.816667,108.316667,3,2
"Nantong",32.030278,120.874722,3,2
"Neijiang",29.583536,105.06216,3,2
"Ningbo",29.878186,121.549453,3,2
"Pingdingshan",33.738472,113.301194,3,2
"Puyang",35.702778,115.005278,3,2
"Qingdao",36.098611,120.371944,3,2
"Qinhuangdao",39.931667,119.588333,3,2
"Qiqihar",47.340833,123.967222,3,2
"Rongcheng",23.528858,116.364159,3,2
"Shaoguan",24.8,113.583333,3,2
"Shaoyang",26.965893,111.241376,3,2
"Shenzhen",22.533333,114.133333,3,2
"Shihezi",44.3,86.033333,3,2
"Suzhou",31.311389,120.618056,3,2
"Taian",36.185278,117.12,3,2
"Taizhou",32.493333,119.910627,3,2
"Tanggu",39.021111,117.646944,3,2
"Urumqi",43.800965,87.600459,3,2
"Wenzhou",27.999416,120.66682,3,2
"Wuhu",31.14607,118.57069,3,2
"Wuxi",31.568873,120.288573,3,2
"Xiamen",24.479794,118.081869,3,2
"Xianyang",34.33778,108.70261,3,2
"Xingtai",37.063056,114.494167,3,2
"Xining",36.616667,101.766667,3,2
"Xinxiang",35.308889,113.867222,3,2
"Xinyang",32.095833,114.120278,3,2
"Xuzhou",34.180454,117.15707,3,2
"Yancheng",33.385556,120.125278,3,2
"Yangzhou",32.397222,119.435833,3,2
"Yantai",37.533333,121.4,3,2
"Yingkou",40.637318,122.502508,3,2
"Yueyang",29.140833,113.111111,3,2
"Zhangdian",36.790556,118.063333,3,2
"Zhangjiakou",40.81,114.879444,3,2
"Zhangzhou",24.513333,117.655556,5,2
"Zhanjiang",21.281452,110.342713,3,2
"Zhenjiang",32.209167,119.434167,3,2
"Zhuhai",22.276944,113.567778,5,2
"Zhuzhou",27.691868,113.152137,3,2
"Zigong",29.341622,104.776887,3,2
"Barranquilla",10.963889,-74.796389,2,2
"Bucaramanga",7.125393,-73.119804,2,2
"Cartagena",10.399722,-75.514444,1,2
"Cucuta",7.893907,-72.507821,2,2
"Santiago De Cuba",20.0247222,-75.8219444,3,2
"Bremen",53.083333,8.8,3,2
"Cologne",50.933333,6.95,3,2
"Dortmund",51.516667,7.45,4,2
"Duisburg",51.433333,6.75,3,2
"Dusseldorf",51.216667,6.766667,3,2
"Essen",51.45,7.016667,4,2
"Frankfurt",50.116667,8.683333,3,2
"Hamburg",53.55,10,3,2
"Hanover",52.366667,9.716667,3,2
"Munich",48.1500,11.5833,3,2
"Stuttgart",48.766667,9.183333,3,2
"Jibuti",11.595,43.1480556,3,2
"Santiago",19.45,-70.7,3,2
"Wahran",35.6911111,-0.6416667,3,2
"Guayaquil",-2.1666667,-79.9,3,2
"Port Said",31.2666667,32.3,3,2
"Asmara",15.3333333,38.9333333,3,2
"Barcelona",41.398371,2.1741,3,2
"Malaga",36.726666,-4.434802,3,2
"Sevilla",37.382408,-5.976133,3,2
"Valencia",39.466667,-.366667,3,2
"Zaragoza",41.64531,-.884861,3,2
"Helsinki",60.175556,24.934167,3,2
"Marseille",43.285413,5.37606,3,2
"Belfast",54.583333,-5.933333,3,2
"Birmingham",52.466667,-1.916667,3,2
"Glasgow",55.833333,-4.25,3,2
"Tbilisi",41.725,44.7908333,3,2
"Accra",5.55,-0.2166667,3,2
"Kumasi",6.6833333,-1.6166667,3,2
"Conakry",9.5091667,-13.7122222,3,2
"Tegucigalpa",14.1,-87.2166667,3,2
"Bandung",-6.903889,107.618611,3,2
"Banjarmasin",-3.333333,114.583333,3,2
"Bekasi",-6.2349,106.9896,5,2
"Bogor",-6.594444,106.789167,3,2
"Depok",-6.343333,106.498889,3,2
"Makasar",-5.14,119.4221,3,2
"Malang",-7.9797,112.6304,3,2
"Medan",3.583333,98.666667,3,2
"Padang",-.953154,100.367659,3,2
"Palembang",-2.916667,104.75,3,2
"Semarang",-6.9932,110.4203,3,2
"Surakarta",-7.556111,110.831667,3,2
"Tangerang",-6.178056,106.63,5,2
"Yogyakarta",-7.782778,110.360833,3,2
"Agra",27.183333,78.016667,3,2
"Ajmer",26.45,74.633333,3,2
"Aligarh",27.883333,78.083333,3,2
"Allahabad",25.45,81.85,3,2
"Amravati",20.933333,77.75,3,2
"Amritsar",31.633056,74.865556,3,2
"Asansol",23.683333,86.983333,3,2
"Aurangabad",19.883333,75.333333,3,2
"Bareli",28.35,79.416667,3,2
"Bhavnagar",21.766667,72.15,3,2
"Bhilai",21.216667,81.433333,5,2
"Bhiwandi",19.3,73.066667,6,2
"Bhopal",23.266667,77.4,3,2
"Bhubaneswar",20.233333,85.833333,3,2
"Bikaner",28.016667,73.3,3,2
"Chandigarh",30.7343,76.7933,3,2
"Dehra Dun",30.316667,78.033333,3,2
"Durgapur",23.483333,87.316667,3,2
"Faridabad",28.433333,77.316667,4,2
"Ghaziabad",28.666667,77.433333,5,2
"Gorakhpur",26.755,83.373889,3,2
"Guntur",16.3,80.45,3,2
"Guwahati",26.183333,91.733333,3,2
"Gwalior",26.223611,78.179167,3,2
"Haora",22.589167,88.310278,3,2
"Hubli",15.35,75.166667,3,2
"Indore",22.716667,75.833333,3,2
"Jabalpur",23.166667,79.95,3,2
"Jalandhar",31.325556,75.579167,3,2
"Jamshedpur",22.8,86.183333,3,2
"Jodhpur",26.286667,73.03,3,2
"Kalyan",19.25,73.15,5,2
"Kochi",9.966667,76.233333,3,2
"Kolhapur",16.7,74.216667,3,2
"Kota",25.183333,75.833333,3,2
"Ludhiana",30.9,75.85,3,2
"Madurai",9.933333,78.116667,3,2
"Maisuru",12.307222,76.649722,3,2
"Moradabad",28.833333,78.783333,3,2
"Patna",25.6,85.116667,3,2
"Pimpri",18.616667,73.8,3,2
"Raipur",21.233333,81.633333,3,2
"Rajkot",22.3,70.783333,3,2
"Ranchi",23.35,85.333333,3,2
"Selam",11.65,78.166667,3,2
"Shiliguri",26.716111,88.423611,3,2
"Sholapur",17.683333,75.916667,3,2
"Srinagar",34.092222,74.802222,3,2
"Thana",19.2,72.966667,5,2
"Thiruvananthapuram",8.506944,76.956944,3,2
"Tiruchchirappalli",10.805,78.685556,3,2
"Ulhasnagar",19.216667,73.15,3,2
"Vadodara",22.3,73.2,3,2
"Varanasi",25.333333,83,3,2
"Vijayawada",16.516667,80.616667,3,2
"Visakhapatnam",17.7,83.3,3,2
"Warangal",18,79.583333,3,2
"Irbil",36.19,44.0088889,3,2
"Kirkuk",35.4680556,44.3922222,3,2
"Ahvaz",31.3203,48.6693,3,2
"Arak",34.091741,49.689164,3,2
"Esfahan",32.657218,51.677608,3,2
"Hamadan",34.799216,48.514556,3,2
"Karaj",35.8355,51.0103,3,2
"Kerman",30.283209,57.07879,3,2
"Kermanshah",34.314167,47.065,3,2
"Orumiyeh",37.5553,45.0724,3,2
"Qom",34.6401,50.8764,3,2
"Rasht",37.280769,49.58319,3,2
"Shiraz",29.6036,52.5388,3,2
"Tabriz",38.08,46.2919,3,2
"Genoa",44.416667,8.95,3,2
"Milan",45.466667,9.2,3,2
"Naples",40.833333,14.25,3,2
"Palermo",38.116667,13.366667,3,2
"Turin",45.05,7.666667,3,2
"Kingston",18.0,-76.8,3,2
"Funabashi",35.693056,139.983333,5,2
"Hachioji",35.655833,139.323889,3,2
"Hamamatsu",34.7,137.733333,2,2
"Hiroshima",34.434844,132.740622,2,2
"Kawasaki",35.520556,139.717222,4,2
"Kitakyushu",33.833333,130.833333,3,2
"Kobe",34.691304,135.182995,3,2
"Niigata",37.902222,139.023611,3,2
"Sagamihara",35.553056,139.354444,5,2
"Saitama",35.895534,139.67747,3,2
"Sakai",34.583333,135.466667,3,2
"Mombasa",-4.05,39.6666667,3,2
"Almaty",43.25,76.95,3,2
"Benghazi",32.1166667,20.0666667,3,2
"Agadir",30.420664,-9.593161,3,2
"Fez",34.037151,-4.999797,3,2
"Marrakesh",31.631485,-8.008281,3,2
"Tangier",35.780576,-5.813646,3,2
"Chisinau",47.005556,28.8575,3,2
"Bamako",12.65,-8.0,3,2
"Mandalay",22.0,96.0833333,7,2
"Ulaanbaatar",47.9166667,106.9166667,3,2
"Blantyre",-15.7833333,35.0,3,2
"Acapulco",16.85,-99.916667,3,2
"Aguascalientes",21.883333,-102.3,2,2
"Cancun",21.166667,-86.833333,3,2
"Chihuahua",28.633333,-106.083333,3,2
"Chimalhuacan",19.416667,-98.9,6,2
"Culiacan",24.799444,-107.389722,3,2
"Ecatepec",19.601111,-99.0525,3,2
"Guadalajara",20.666667,-103.333333,2,2
"Guadalupe",25.683333,-100.25,4,2
"Hermosillo",29.066667,-110.966667,3,2
"Juarez",31.733333,-106.483333,3,2
"Leon",21.116667,-101.666667,3,2
"Lopez Mateos",19.558333,-99.261389,6,2
"Merida",20.966667,-89.616667,3,2
"Mexicali",32.651944,-115.468333,3,2
"Monterrey",25.666667,-100.316667,6,2
"Morelia",19.7,-101.116667,3,2
"Naucalpan",19.479444,-99.238333,7,2
"Nezahualcoyotl",19.413611,-99.033056,7,2
"Puebla",19.05,-98.2,3,2
"Queretaro",20.6,-100.383333,3,2
"Saltillo",25.416667,-101,3,2
"San Luis Potosi",22.15,-100.983333,3,2
"San Nicolas De Los Garza",25.75,-100.3,7,2
"Tijuana",32.533333,-117.016667,3,2
"Tlalnepantla",19.526944,-99.221667,7,2
"Toluca",19.288333,-99.667222,3,2
"Torreon",25.55,-103.433333,3,2
"Veracruz",19.2,-96.133333,3,2
"Zapopan",20.716667,-103.4,5,2
"Ipoh",4.5841,101.0829,3,2
"Johor Bahru",1.4655,103.7578,5,2
"Klang",3.033333,101.45,3,2
"Kuching",1.55,110.333333,3,2
"Petaling Jaya",3.083333,101.65,5,2
"Beira",-19.8436111,34.8388889,3,2
"Matola",-25.9622222,32.4588889,3,2
"Aba",5.106576,7.366667,3,2
"Abeokuta",7.15,3.35,3,2
"Benin",6.335045,5.627492,3,2
"Enugu",6.4402,7.4943,3,2
"Ilorin",8.5,4.55,3,2
"Jos",9.916667,8.9,3,2
"Kaduna",10.522239,7.43828,3,2
"Maiduguri",11.846441,13.160274,3,2
"Ogbomosho",8.133333,4.266667,3,2
"Onitsha",6.14543,6.788452,3,2
"Oyo",7.85,3.933333,3,2
"Port Harcourt",4.777423,7.013404,3,2
"Sokoto",13.048025,5.214285,3,2
"Warri",5.516667,5.75,3,2
"Zaria",11.113236,7.725176,3,2
"Rotterdam",51.916667,4.5,3,2
"Oslo",59.916667,10.75,3,2
"Arequipa",-16.3988889,-71.535,3,2
"Chiclayo",-6.7736111,-79.8416667,3,2
"Trujillo",-8.1166667,-79.0333333,3,2
"Antipolo",14.5886,121.1757,3,2
"Cebu",10.311111,123.891667,3,2
"Davao",7.073056,125.612778,3,2
"Makati",14.566667,121.033333,3,2
"Bahawalpur",29.4,71.683333,3,2
"Gujranwala",32.161667,74.188309,3,2
"Hyderabad",25.39242,68.373656,3,2
"Multan",30.195556,71.475278,3,2
"Peshawar",34.008,71.578488,3,2
"Quetta",30.199004,67.009708,3,2
"Rawalpindi",33.6007,73.0679,5,2
"Sargodha",32.083611,72.671111,3,2
"Cracow",50.083333,19.916667,3,2
"Poznan",52.416667,16.966667,3,2
"Wroclaw",51.1,17.033333,3,2
"Astrakhan",46.349683,48.040756,3,2
"Barnaul",53.360556,83.763611,3,2
"Chelyabinsk",55.154444,61.429722,3,2
"Irkutsk",52.297778,104.296389,3,2
"Izhevsk",56.849756,53.204479,3,2
"Kazan",55.78874,49.122144,3,2
"Khabarovsk",48.480833,135.092778,3,2
"Krasnodar",45.0488,38.9725,3,2
"Krasnoyarsk",56.0091,92.8628,3,2
"Lipetsk",52.603111,39.570762,3,2
"Nizhniy Novgorod",56.326944,44.0075,3,2
"Novokuznetsk",53.7557,87.1099,3,2
"Novosibirsk",55.0415,82.9346,3,2
"Omsk",55,73.4,3,2
"Penza",53.200656,45.004643,3,2
"Perm",58.009282,56.284063,3,2
"Rostov-na-donu",47.23135,39.723284,3,2
"Ryazan",54.6269,39.6916,3,2
"Samara",53.1835,50.1182,3,2
"Saratov",51.540556,46.008611,3,2
"Tolyatti",53.5303,49.3461,3,2
"Tyumen",57.152222,65.527222,3,2
"Ufa",54.785167,56.045621,3,2
"Ulyanovsk",54.328241,48.38657,3,2
"Vladivostok",43.128056,131.901111,3,2
"Volgograd",48.71939,44.501835,3,2
"Voronezh",51.672035,39.184301,3,2
"Yaroslavl",57.61977,39.85536,3,2
"Yekaterinburg",56.8519,60.6122,3,2
"Mecca",21.426667,39.826111,3,2
"Khartoum",15.5880556,32.5341667,3,2
"Goteborg",57.716667,11.966667,3,2
"Stockholm",59.333333,18.05,3,2
"Adana",37.001667,35.328889,3,2
"Antalya",36.908118,30.695565,3,2
"Bursa",40.191667,29.061111,3,2
"Eskisehir",39.776667,30.520556,3,2
"Gaziantep",37.059444,37.3825,3,2
"Kayseri",38.732222,35.485278,3,2
"Konya",37.871354,32.484636,3,2
"Mersin",36.732778,34.644167,3,2
"Kaohsiung",22.6177778,120.3013889,5,2
"Kaohsiung",22.6333333,120.35,3,2
"Taichung",24.1433333,120.6813889,3,2
"Tainan",22.9933333,120.2036111,3,2
"Kryvyy Rih",47.909659,33.380438,3,2
"Lvov",49.840661,24.030451,3,2
"Odesa",46.463934,30.738551,3,2
"Zaporizhzhya",47.822892,35.190314,3,2
"Phoenix",33.4483333,-112.0733333,1,2
"Tucson",32.2216667,-110.9258333,1,2
"San Diego",32.7152778,-117.1563889,2,2
"San Francisco",37.7750000,-122.4183333,1,2
"San Jose",37.3394444,-121.8938889,2,2
"Denver",39.7391667,-104.9841667,1,2
"Jacksonville",30.3319444,-81.6558333,1,2
"Indianapolis",39.7683333,-86.1580556,1,2
"Baltimore",39.2902778,-76.6125000,2,2
"Boston",42.3583333,-71.0602778,1,2
"Detroit",42.3313889,-83.0458333,1,2
"Las Vegas",36.1750000,-115.1363889,1,2
"Charlotte",35.2269444,-80.8433333,1,2
"Columbus",39.9611111,-82.9988889,2,2
"Oklahoma City",35.4675000,-97.5161111,1,2
"Portland",45.5236111,-122.6750000,1,2
"Philadelphia",39.9522222,-75.1641667,1,2
"Memphis",35.1494444,-90.0488889,1,2
"Nashville",36.1658333,-86.7844444,1,2
"Austin",30.2669444,-97.7427778,1,2
"Dallas",32.7833333,-96.8000000,1,2
"El Paso",31.7586111,-106.4863889,1,2
"Fort Worth",32.7252778,-97.3205556,3,2
"San Antonio",29.4238889,-98.4933333,3,2
"Seattle",47.6063889,-122.3308333,1,2
"Milwaukee",43.0388889,-87.9063889,1,2
"Barquisimeto",10.0738889,-69.3227778,3,2
"Ciudad Guayana",8.3533333,-62.6527778,2,2
"Maracaibo",10.6316667,-71.6405556,1,2
"Valencia",10.1805556,-68.0038889,2,2
"Hai Phong",20.856111,106.682222,3,2
"Aden",12.7794444,45.0366667,3,2
"Benoni",-26.190851,28.311338,3,2
"Pietermaritzburg",-29.616785,30.39278,3,2
"Port Elizabeth",-33.917988,25.570066,3,2
"Pretoria",-25.706944,28.229444,3,2
"Soweto",-26.267812,27.858492,3,2
"Tembisa",-25.996363,28.226802,3,2
"Bulawayo",-20.15,28.5833333,3,2
"Hargeisa",9.55,44.050000,3,1
"King Edward Point",-54.283333,-36.500000,3,1
"Port-aux-FranÃƒÂ§ais",-49.35,70.216667,3,1
"Jerusalem",31.766666666666666,35.233333,4,1
"Mariehamn",60.116667,19.900000,3,1
"Yaren",-0.5477,166.920867,7,1
"Marigot",18.0731,-63.082200,4,1
"Atafu",-9.166667,-171.833333,4,1
"El Aaiún (العيون)",27.153611,-13.203333,3,1
"Kabul",34.516666666666666,69.183333,3,1
"Tirana",41.31666666666667,19.816667,4,1
"Pago Pago",-14.266666666666667,-170.700000,6,1
"Andorra la Vella",42.5,1.516667,6,1
"Luanda",-8.833333333333334,13.216667,3,1
"The Valley",18.216666666666665,-63.050000,8,1
"Saint John's",17.116666666666667,-61.850000,6,1
"Buenos Aires",-34.583333333333336,-58.666667,2,1
"Yerevan",40.166666666666664,44.500000,3,1
"Oranjestad",12.516666666666667,-70.033333,7,1
"Canberra",-35.266666666666666,149.133333,2,1
"Vienna",48.2,16.366667,3,1
"Baku",40.38333333333333,49.866667,3,1
"Nassau",25.083333333333332,-77.350000,5,1
"Manama",26.233333333333334,50.566667,3,1
"Dhaka",23.716666666666665,90.400000,3,1
"Bridgetown",13.1,-59.616667,5,1
"Minsk",53.9,27.566667,3,1
"Brussels",50.833333333333336,4.333333,3,1
"Belmopan",17.25,-88.766667,3,1
"Porto-Novo",6.483333333333333,2.616667,3,1
"Hamilton",32.28333333333333,-64.783333,8,1
"Thimphu",27.466666666666665,89.633333,5,1
"La Paz",-16.5,-68.150000,2,1
"Sarajevo",43.86666666666667,18.416667,5,1
"Gaborone",-24.633333333333333,25.900000,3,1
"Brasilia",-15.783333333333333,-47.916667,2,1
"Road Town",18.416666666666668,-64.616667,8,1
"Bandar Seri Begawan",4.883333333333333,114.933333,3,1
"Sofia",42.68333333333333,23.316667,3,1
"Ouagadougou",12.366666666666667,-1.516667,4,1
"Rangoon",16.8,96.150000,3,1
"Bujumbura",-3.3666666666666667,29.350000,5,1
"Phnom Penh",11.55,104.916667,3,1
"Ottawa",45.416666666666664,-75.700000,3,1
"Praia",14.916666666666666,-23.516667,3,1
"George Town",19.3,-81.383333,7,1
"N'Djamena",12.1,15.033333,3,1
"Santiago",-33.45,-70.666667,2,1
"Beijing",39.916666666666664,116.383333,2,1
"The Settlement",-10.416666666666666,105.716667,5,1
"West Island",-12.166666666666666,96.833333,6,1
"Bogota",4.6,-74.083333,2,1
"Moroni",-11.7,43.233333,4,1
"Kinshasa",-4.316666666666666,15.300000,8,1
"Brazzaville",-4.25,15.283333,3,1
"Avarua",-21.2,-159.766667,5,1
"San Jose",9.933333333333334,-84.083333,4,1
"Yamoussoukro",6.816666666666666,-5.266667,3,1
"Zagreb",45.8,16.000000,3,1
"Havana",23.116666666666667,-82.350000,3,1
"Willemstad",12.1,-68.916667,5,1
"Nicosia",35.166666666666664,33.366667,6,1
"Prague",50.083333333333336,14.466667,3,1
"Copenhagen",55.666666666666664,12.583333,3,1
"Djibouti",11.583333333333334,43.150000,3,1
"Roseau",15.3,-61.400000,5,1
"Santo Domingo",18.466666666666665,-69.900000,3,1
"Quito",-0.21666666666666667,-78.500000,2,1
"Cairo",30.05,31.250000,3,1
"San Salvador",13.7,-89.200000,4,1
"Malabo",3.75,8.783333,3,1
"Asmara",15.333333333333334,38.933333,4,1
"Tallinn",59.43333333333333,24.716667,3,1
"Addis Ababa",9.033333333333333,38.700000,3,1
"Stanley",-51.7,-57.850000,3,1
"Torshavn",62,-6.766667,4,1
"Suva",-18.133333333333333,178.416667,3,1
"Helsinki",60.166666666666664,24.933333,2,1
"Paris",48.86666666666667,2.333333,2,1
"Papeete",-17.533333333333335,-149.566667,5,1
"Libreville",2.38333333333333336,9.450000,3,1
"Banjul",13.45,-16.566667,6,1
"Tbilisi",41.68333333333333,44.833333,3,1
"Berlin",52.516666666666666,13.400000,2,1
"Accra",5.55,-0.216667,3,1
"Gibraltar",36.13333333333333,-5.350000,7,1
"Athens",37.983333333333334,23.733333,3,1
"Nuuk",64.18333333333334,-51.750000,3,1
"Saint George's",12.05,-61.750000,3,1
"Hagatna",13.466666666666667,144.733333,7,1
"Guatemala City",14.616666666666667,-90.516667,3,1
"Saint Peter Port",49.45,-2.533333,6,1
"Bissau",11.85,-15.583333,5,1
"Georgetown",6.8,-58.150000,2,1
"Port-au-Prince",18.533333333333335,-72.333333,3,1
"Tegucigalpa",14.1,-87.216667,3,1
"Budapest",47.5,19.083333,3,1
"Reykjavik",64.15,-21.950000,2,1
"New Delhi",28.6,77.200000,2,1
"Jakarta",-6.166666666666667,106.816667,3,1
"Tehran",35.7,51.416667,2,1
"Baghdad",33.333333333333336,44.400000,3,1
"Dublin",53.31666666666667,-6.233333,3,1
"Douglas",54.15,-4.483333,3,1
"Jerusalem",31.766666666666666,35.233333,3,1
"Rome",41.9,12.483333,3,1
"Kingston",18,-76.800000,8,1
"Tokyo",35.68333333333333,139.750000,2,1
"Saint Helier",49.18333333333333,-2.100000,6,1
"Amman",31.95,35.933333,5,1
"Astana",51.166666666666664,71.416667,3,1
"Nairobi",-1.2833333333333332,36.816667,3,1
"Tarawa",-0.8833333333333333,169.533333,3,1
"Pyongyang",39.016666666666666,125.750000,3,1
"Seoul",37.55,126.983333,3,1
"Pristina",42.666666666666664,21.166667,5,1
"Kuwait City",29.366666666666667,47.966667,4,1
"Bishkek",42.86666666666667,74.600000,3,1
"Vientiane",17.966666666666665,102.600000,3,1
"Riga",56.95,24.100000,3,1
"Beirut",33.86666666666667,35.500000,3,1
"Maseru",-29.316666666666666,27.483333,3,1
"Monrovia",6.3,-10.800000,4,1
"Tripoli",32.88333333333333,13.166667,2,1
"Vaduz",47.13333333333333,9.516667,6,1
"Vilnius",54.68333333333333,25.316667,3,1
"Luxembourg",49.6,6.116667,3,1
"Skopje",42,21.433333,3,1
"Antananarivo",-18.916666666666668,47.516667,3,1
"Lilongwe",-13.966666666666667,33.783333,3,1
"Kuala Lumpur",3.1666666666666665,101.700000,3,1
"Male",4.166666666666667,73.500000,3,1
"Bamako",12.65,-8.000000,3,1
"Valletta",35.88333333333333,14.500000,6,1
"Majuro",7.1,171.383333,6,1
"Nouakchott (نواكشوط)",18.066666666666666,-15.966667,3,1
"Port Louis",-20.15,57.483333,3,1
"Mexico City",19.433333333333334,-99.133333,1,1
"Palikir",6.916666666666667,158.150000,6,1
"Chisinau",47,28.850000,3,1
"Monaco",43.733333333333334,7.416667,7,1
"Ulaanbaatar",47.916666666666664,106.916667,3,1
"Podgorica",42.43333333333333,19.266667,3,1
"Plymouth",16.7,-62.216667,6,1
"Rabat",34.016666666666666,-6.816667,3,1
"Maputo",-25.95,32.583333,3,1
"Windhoek",-22.566666666666666,17.083333,3,1
"Kathmandu",27.716666666666665,85.316667,3,1
"Amsterdam",52.35,4.916667,3,1
"Noumea",-22.266666666666666,166.450000,3,1
"Wellington",-41.3,174.783333,3,1
"Managua",12.133333333333333,-86.250000,3,1
"Niamey",13.516666666666667,2.116667,3,1
"Abuja",9.083333333333334,7.533333,4,1
"Alofi",-19.016666666666666,-169.916667,6,1
"Kingston",-29.05,167.966667,3,1
"Saipan",15.2,145.750000,3,1
"Oslo",59.916666666666664,10.750000,3,1
"Muscat",23.616666666666667,58.583333,3,1
"Islamabad",33.68333333333333,73.050000,3,1
"Melekeok",7.483333333333333,134.633333,6,1
"Panama City",8.966666666666667,-79.533333,3,1
"Port Moresby",-9.45,147.183333,3,1
"Asuncion",-25.266666666666666,-57.666667,2,1
"Lima",-12.05,-77.050000,2,1
"Manila",14.6,120.966667,3,1
"Adamstown",-25.066666666666666,-130.083333,3,1
"Warsaw",52.25,21.000000,2,1
"Lisbon",38.71666666666667,-9.133333,2,1
"San Juan",18.466666666666665,-66.116667,3,1
"Doha",25.283333333333335,51.533333,4,1
"Bucharest",44.43333333333333,26.100000,3,1
"Moscow",55.75,37.600000,2,1
"Kigali",-1.95,30.050000,5,1
"Gustavia",17.883333333333333,-62.850000,6,1
"Jamestown",-15.933333333333334,-5.716667,7,1
"Basseterre",17.3,-62.716667,6,1
"Castries",14,-61.000000,5,1
"Saint-Pierre",46.766666666666666,-56.183333,3,1
"Kingstown",13.133333333333333,-61.216667,5,1
"Apia",-13.816666666666666,-171.766667,4,1
"San Marino",43.93333333333333,12.416667,7,1
"Sao Tome",2.3333333333333333,6.733333,6,1
"Riyadh",24.65,46.700000,3,1
"Dakar",14.733333333333333,-17.633333,3,1
"Belgrade",44.833333333333336,20.500000,3,1
"Victoria",-4.616666666666667,55.450000,3,1
"Freetown",8.483333333333333,-13.233333,4,1
"Singapore",1.2833333333333332,103.850000,5,1
"Philipsburg",18.016666666666666,-63.033333,6,1
"Bratislava",48.15,17.116667,4,1
"Ljubljana",46.05,14.516667,3,1
"Honiara",-9.433333333333334,159.950000,4,1
"Mogadishu",2.066666666666667,45.333333,3,1
"Pretoria",-25.7,28.216667,3,1
"Juba",4.85,31.616667,3,1
"Madrid",40.4,-3.683333,3,1
"Colombo",6.916666666666667,79.833333,3,1
"Khartoum",15.6,32.533333,3,1
"Paramaribo",5.833333333333333,-55.166667,3,1
"Longyearbyen",78.21666666666667,15.633333,3,1
"Mbabane",-26.316666666666666,31.133333,4,1
"Stockholm",59.333333333333336,18.050000,3,1
"Bern",46.916666666666664,7.466667,4,1
"Damascus",33.5,36.300000,3,1
"Taipei",25.033333333333335,121.516667,2,1
"Dushanbe",38.55,68.766667,3,1
"Dar es Salaam",-6.8,39.283333,3,1
"Bangkok",13.75,100.516667,3,1
"Dili",-8.583333333333334,125.600000,3,1
"Lome",6.116666666666666,1.216667,3,1
"Nuku'alofa",-21.133333333333333,-175.200000,6,1
"Port of Spain",10.65,-61.516667,3,1
"Tunis",36.8,10.183333,3,1
"Ankara",39.93333333333333,32.866667,3,1
"Ashgabat",37.95,58.383333,3,1
"Grand Turk",21.466666666666665,-71.133333,4,1
"Funafuti",-8.516666666666667,179.216667,4,1
"Kampala",2.31666666666666665,32.550000,3,1
"Kyiv",50.43333333333333,30.516667,2,1
"Abu Dhabi",24.466666666666665,54.366667,3,1
"London",51.5,-0.083333,2,1
"Washington D.C.",38.883333,-77.000000,2,1
"Montevideo",-34.85,-56.166667,3,1
"Tashkent",41.31666666666667,69.250000,3,1
"Port-Vila",-17.733333333333334,168.316667,3,1
"Caracas",10.483333333333333,-66.866667,2,1
"Hanoi",21.033333333333335,105.850000,3,1
"Charlotte Amalie",18.35,-64.933333,8,1
"Mata-Utu",-13.95,-171.933333,4,1
"Sanaa",15.35,44.200000,3,1
"Lusaka",-15.416666666666666,28.283333,3,1
"Harare",-17.816666666666666,31.033333,3,1
"Washington D.C.",38.883333,-77.000000,3,1
"North Nicosia",35.183333,33.366667,8,1
"Diego Garcia",-7.3,72.400000,3,1
"Andorra",42.546245,1.601554,3,0
"United Arab Emirates",23.424076,53.847818,2,0
"Afghanistan",33.93911,67.709953,0,0
"Antigua and Barbuda",17.060816,-61.796428,2,0
"Anguilla",18.220554,-63.068615,2,0
"Albania",41.153332,20.168331,2,0
"Armenia",40.542235682014386,44.4406030284388,2,0
"Netherlands Antilles",12.226079,-69.060087,5,0
"Angola",-11.202692,17.873887,1,0
"Antarctica",-75.250973,-0.071389,2,0
"Argentina",-38.416097,-65.016672,0,0
"American Samoa",-14.270972,-170.132217,3,0
"Austria",47.516231,14.550072,1,0
"Australia",-25.274398,133.775136,0,0
"Aruba",12.486899929986723,-69.95247863660052,3,0
"Azerbaijan",40.143105,47.576927,3,0
"Bosnia and Herzegovina",43.915886,17.679076,3,0
"Barbados",13.193887,-59.543198,4,0
"Bangladesh",23.400875752826703,90.09579516743929,2,0
"Belgium",50.503887,4.469936,2,0
"Burkina Faso",12.238333,-1.561593,2,0
"Bulgaria",42.733883,25.48583,1,0
"Bahrain",25.930414,50.637772,2,0
"Burundi",-3.373056,29.918886,2,0
"Benin",9.30769,2.315834,2,0
"Bermuda",32.321384,-64.75737,2,0
"Brunei",4.535277,114.727669,2,0
"Bolivia",-16.290154,-63.588653,1,0
"Brazil",-14.235004,-51.92528,0,0
"Bahamas",25.03428,-77.39628,2,0
"Bhutan",27.514162,90.433601,2,0
"Bouvet Island",-54.423199,3.413194,2,0
"Botswana",-22.328474,24.684866,2,0
"Belarus",53.709807,27.953389,1,0
"Belize",16.913944185702082,-88.64777587781163,2,0
"Canada",56.130366,-106.346771,0,0
"Cocos Islands",-12.164165,96.870956,2,0
"Democratic Republic Congo",-3.0619164885186008,23.348991348281743,0,0
"Central African Republic",6.611111,20.939444,1,0
"Republic of Congo",-0.228021,15.827659,2,0
"Switzerland",46.818188,8.227512,2,0
"Côte d'Ivoire",7.539989,-5.54708,2,0
"Cook Islands",-21.236736,-159.777671,2,0
"Chile",-35.675147,-71.542969,0,0
"Cameroon",4.727193823800601,11.992505132983979,1,0
"China",35.86166,104.195397,0,0
"Colombia",3.070868,-73.2975,0,0
"Costa Rica",9.748917,-83.753428,2,0
"Cuba",21.521757,-77.781167,0,0
"Cape Verde",16.002082,-24.013197,2,0
"Christmas Island",-10.447525,105.690449,2,0
"Cyprus",35.126413,33.429859,2,0
"Czech Republic",49.817492,15.472962,2,0
"Germany",51.165691,10.451526,0,0
"Djibouti",11.825138,42.590275,2,0
"Denmark",56.26392,9.501785,2,0
"Dominica",15.414999,-61.370976,4,0
"Dominican Republic",18.962302964931332,-70.44277356949023,3,0
"Algeria",28.033886,1.659626,0,0
"Ecuador",-1.3739351354234037,-78.55879699494244,1,0
"Estonia",58.595272,25.013607,1,0
"Egypt",26.02540187601811,29.512023727737414,0,0
"Western Sahara",24.215527,-12.885834,2,0
"Eritrea",15.179384,39.782334,2,0
"Spain",39.57545933391429,-3.866281737186597,0,0
"Ethiopia",8.39484424701743,39.12204773437509,0,0
"Finland",61.92411,25.748151,0,0
"Fiji",-16.578193,179.414413,2,0
"Falkland Islands",-51.796253,-59.523613,2,0
"Micronesia",6.874584956633689,158.22691220766853,4,0
"Faroe Islands",61.892635,-6.911806,2,0
"France",46.227638,2.213749,0,0
"Gabon",-0.803689,11.609444,2,0
"United Kingdom",52.5246584656565,-1.1000493263376256,1,0
"Grenada",12.262776,-61.604171,4,0
"Georgia",42.315407,43.356892,2,0
"French Guiana",3.933889,-53.125782,3,0
"Guernsey",49.465691,-2.585278,4,0
"Ghana",7.946527,-1.023194,1,0
"Gibraltar",36.119091822884236,-5.3493144884241985,2,0
"Greenland",71.66506381722978,-41.131906737186455,0,0
"Gambia",13.425025440390035,-16.182118089793363,3,0
"Guinea",9.945587,-9.696645,1,0
"Guadeloupe",16.24829395528423,-61.56430228706121,5,0 // Fix Offset
"Equatorial Guinea",1.650801,10.267895,3,0
"Greece",39.074208,21.824312,1,0
"South Georgia and the South Sandwich Islands",-54.429579,-36.587909,2,0
"Guatemala",15.136914179627803,-90.55321225220209,2,0
"Guam",13.444304,144.793731,2,0
"Guinea-Bissau",12.027136700505007,-15.095525446868066,2,0
"Guyana",4.860416,-58.93018,2,0
"Gaza Strip",31.354676,34.308825,4,0
"Hong Kong",22.396428,114.109497,2,0
"Heard Island and McDonald Islands",-53.08181,73.504158,2,0
"Honduras",15.199999,-86.241905,0,0
"Croatia",45.1,15.2,2,0
"Haiti",18.971187,-72.285215,2,0
"Hungary",47.162494,19.503304,1,0
"Indonesia",-0.789275,113.921327,0,0
"Ireland",53.41291,-8.24389,1,0
"Israel",31.046051,34.851612,2,0
"Isle of Man",54.236107,-4.548056,4,0
"India",20.593684,78.96288,0,0
"British Indian Ocean Territory",-6.343194,71.876519,2,0
"Iraq",33.223191,43.679291,0,0
"Iran",32.427908,53.688046,0,0
"Iceland",64.83214760968391,-18.522043455936398,0,0
"Italy",42.69609510117685,12.699727784298005,0,0
"Jersey",49.214439,-2.13125,4,0
"Jamaica",18.109581,-77.297508,1,0
"Jordan",30.585164,36.238414,3,0
"Japan",36.204824,138.252924,1,0
"Kenya",-0.023559,37.906193,0,0
"Kyrgyzstan",41.20438,74.766098,1,0
"Cambodia",12.565679,104.990963,2,0
"Kiribati",-3.370417,-168.734039,2,0
"Comoros",-11.875001,43.872219,2,0
"Saint Kitts and Nevis",17.357822,-62.782998,5,0
"North Korea",40.339852,127.510093,1,0
"South Korea",35.907757,127.766922,1,0
"Kuwait",29.31166,47.481766,2,0
"Cayman Islands",19.317783139085282,-81.18740247574026,2,0
"Kazakhstan",48.019573,66.923684,0,0
"Laos",19.85627,102.495496,1,0
"Lebanon",34.04983452574472,35.89449266351323,2,0
"Saint Lucia",13.909444,-60.978893,3,0
"Liechtenstein",47.16380158747767,9.53944183459086,4,0
"Sri Lanka",7.873054,80.771797,2,0
"Liberia",6.428055,-9.429499,1,0
"Lesotho",-29.609988,28.233608,2,0
"Lithuania",55.169438,23.881275,2,0
"Luxembourg",49.815273,6.129583,2,0
"Latvia",56.879635,24.603189,1,0
"Libya",26.3351,17.228331,0,0
"Morocco",31.791702,-7.09262,0,0
"Monaco",43.750298,7.412841,3,0
"Moldova",47.411631,28.369885,2,0
"Montenegro",42.708678,19.37439,3,0
"Madagascar",-18.766947,46.869107,0,0
"Marshall Islands",7.131474,171.184478,2,0
"Macedonia",41.608635,21.745275,2,0
"Mali",17.96641105845723,-1.8209840847625571,0,0
"Myanmar",21.913965,95.956223,0,0
"Mongolia",46.862496,103.846656,0,0
"Macau",22.198745,113.543873,5,0
"Northern Mariana Islands",17.33083,145.38469,2,0
"Martinique",14.641528,-61.024174,2,0
"Mauritania",19.3823167622919,-11.096458124999998,0,0
"Montserrat",16.742498,-62.187366,5,0
"Malta",35.937496,14.375416,2,0
"Mauritius",-20.348404,57.552152,2,0
"Maldives",3.202778,73.22068,2,0
"Malawi",-13.254308,34.301525,2,0
"Mexico",23.634501,-102.552784,0,0
"Malaysia",4.210484,101.975766,1,0
"Mozambique",-15.240775136149157,38.13445068468866,1,0
"Namibia",-22.134854488609665,17.152702285781743,1,0
"New Caledonia",-20.904305,165.618042,2,0
"Niger",17.50646398493514,9.634743046875087,0,0
"Norfolk Island",-29.040835,167.954712,2,0
"Nigeria",9.081999,8.675277,0,0
"Nicaragua",12.865416,-85.207229,2,0
"Netherlands",52.132633,5.291266,2,0
"Norway",60.472024,8.468946,0,0
"Nepal",28.394857,84.124008,2,0
"Nauru",-0.522778,166.931503,2,0
"Niue",-19.054445,-169.867233,2,0
"New Zealand",-40.900557,174.885971,2,0
"Oman",21.512583,55.923255,0,0
"Panama",8.537981,-80.782127,1,0
"Peru",-7.875033184908477,-76.27364074494243,0,0
"French Polynesia",-17.679742,-149.406843,2,0
"Papua New Guinea",-6.314993,143.95555,0,0
"Philippines",12.879721,121.774017,0,0
"Pakistan",28.28895467402748,66.51213623156363,0,0
"Poland",51.919438,19.145136,0,0
"Saint Pierre and Miquelon",46.941936,-56.27111,2,0
"Pitcairn Islands",-24.703615,-127.439308,2,0
"Puerto Rico",18.220833,-66.490149,2,0 // Fix offset
"Palestinian Territories",31.952162,35.233154,3,0
"Portugal",39.399872,-8.224454,2,0
"Palau",7.51498,134.58252,2,0
"Paraguay",-23.442503,-58.443832,0,0
"Qatar",25.354826,51.183884,2,0
"Réunion",-21.115141,55.536384,2,0
"Romania",45.943161,24.96676,0,0
"Serbia",44.016521,21.005859,1,0
"Russia",61.52401,105.318756,0,0
"Rwanda",-1.940278,29.873888,2,0
"Saudi Arabia",25.712919022244105,42.17255271121121,2,0
"Solomon Islands",-9.64571,160.156194,2,0
"Seychelles",-4.679574,55.491977,2,0
"Sudan",15.52637329678697,29.893532109375087,0,0
"South Sudan",7.082832100084824,30.078413917996215,2,0
"Sweden",63.30350300416413,15.973810490632161,0,0
"Singapore",1.352083,103.819836,2,0
"Saint Helena",-15.974267341093537,-5.719794611562776,2,0
"Slovenia",45.874622781808284,14.589376221797892,2,0
"Svalbard and Jan Mayen",77.553604,23.670272,2,0
"Slovakia",48.669026,19.699024,2,0
"Sierra Leone",8.460555,-11.779889,2,0
"San Marino",43.94918377467146,12.45625943080276,2,0
"Senegal",14.497401,-14.452362,1,0
"Somalia",3.6764232770836047,45.05466492187509,1,0
"Suriname",3.919305,-56.027783,1,0
"São Tomé and Príncipe",0.18636,6.613081,4,0
"El Salvador",13.794185,-88.89653,2,0
"Syria",34.802075,38.996815,1,0
"Swaziland",-26.522503,31.465866,2,0
"Turks and Caicos Islands",21.694025,-71.797928,2,0
"Chad",15.454166,18.732207,0,0
"French Southern Territories",-49.280366,69.348557,2,0
"Togo",8.540484414025649,1.033642828296479,2,0
"Thailand",15.870032,100.992541,0,0
"Tajikistan",38.861034,71.276093,2,0
"Tokelau",-8.967363,-171.855881,2,0
"Timor-Leste",-8.874217,125.727539,2,0
"Turkmenistan",38.969719,59.556278,1,0
"Tunisia",33.886917,9.537499,2,0
"Tonga",-21.178986,-175.198242,2,0
"Turkey",38.963745,35.243322,0,0
"Trinidad & Tobago",10.691803,-61.222503,2,0
"Tuvalu",-7.109535,177.64933,2,0
"Taiwan",23.69781,120.960515,2,0
"Tanzania",-6.369028,34.888822,1,0
"Ukraine",48.70524908234531,32.318433846108576,0,0
"Uganda",1.373333,32.290275,2,0
"United States",38.53989316085419,-100.84191576027767,0,0
"Uruguay",-33.522779,-55.765835,1,0
"Uzbekistan",41.377491,64.585262,1,0
"Vatican City",41.902916,12.453389,8,0
"Saint Vincent and the Grenadines",12.984305,-61.287228,4,0
"Venezuela",7.55375,-65.90973,0,0
"British Virgin Islands",18.420695,-64.639968,4,0
"U.S. Virgin Islands",18.335765,-64.896335,5,0
"Vietnam",14.058324,108.277199,1,0
"Vanuatu",-15.376706,166.959158,2,0
"Wallis and Futuna",-13.768752,-177.156097,2,0
"Samoa",-13.759029,-172.104629,2,0
"Kosovo",42.602636,20.902977,2,0
"Yemen",15.552727,48.516388,0,0
"Mayotte",-12.8275,45.166244,2,0
"South Africa",-30.559482,22.937506,0,0
"Zambia",-14.677502385966429,26.513053848281743,1,0
"Zimbabwe",-19.015438,29.154857,0,0